CodeInsee,Name,Longitude,Latitude,Id
13020,CADOLIVE,43.39419662,5.532233546,1
6149,LATRINITE,43.7433481,7.339460739,2
5117,RIBEYRET,44.41073046,5.558028621,3
4069,DEMANDOLX,43.8698631,6.574405925,4
4214,TARTONNE,44.07846638,6.383931007,5
4039,CASTELLANE,43.84498622,6.49029842,6
5099,OZE,44.50582948,5.798754861,7
84141,VEDENE,43.97086129,4.903278348,8
83154,SAINT-ANTONIN-DU-VAR,43.5112335,6.290021877,9
6061,LESFERRES,43.8424232733,7.093427552,10
5021,LEBERSAC,44.40569648,5.753409641,11
6031,CANTARON,43.7712031,7.313168927,12
4240,VILLARS-COLMARS,44.19829162,6.568766743,13
83077,MEOUNES-LES-MONTRIEUX,43.27394252,5.96671081,14
6146,TOURNEFORT,43.94139888,7.158503151,15
4210,SOLEILHAS,43.85997606,6.648607532,16
13016,LABOUILLADISSE,43.39719227,5.619807491,17
5151,SAINT-MARTIN-DE-QUEYRIERES,44.83752573,6.582550107,18
5156,SAINT-SAUVEUR,44.53658205,6.529203017,19
84084,LAMOTTE-D'AIGUES,43.78408403,5.52149188,20
84069,MALAUCENE,44.18844822,5.149850809,21
83056,FIGANIERES,43.56721525,6.498704789,22
13081,ROGNAC,43.49713473,5.2310622,23
83019,BORMES-LES-MIMOSAS,43.16227221,6.349569873,24
4108,MALIJAI,44.03366605,6.050424374,25
13207,MARSEILLE--7E--ARRONDISSEMENT,43.28251778,5.363234404,26
5023,BRIANCON,44.8994986,6.64947524,27
4007,ANGLES,43.94432931,6.552320635,28
6154,VALDEROURE,43.79420445,6.710035686,29
13213,MARSEILLE-13E--ARRONDISSEMENT,43.349278,5.433722387,30
4122,MIRABEAU,44.0562296,6.080159316,31
6134,SERANON,43.76566628,6.69043297,32
5073,LAZER,44.35173007,5.849950604,33
4034,LABRILLANNE,43.93190054,5.884218388,34
5047,EOURRES,44.21383734,5.72894554,35
6081,LEMAS,43.83691295,6.858940747,36
83058,FLAYOSC,43.5422121,6.36275721,37
4063,CORBIERES,43.76069098,5.745904525,38
6077,LUCERAM,43.90057269,7.352655753,39
5029,CHABOTTES,44.64757832,6.167919786,40
84088,PERNES-LES-FONTAINES,43.99605505,5.039591002,41
13067,ORGON,43.77961301,5.02340521,42
84014,BEAUMONT-DE-PERTUIS,43.7379109,5.695991272,43
5007,ARVIEUX,44.76389803,6.722308594,44
83001,LESADRETS-DE-L'ESTEREL,43.53562293,6.811087967,45
6026,CABRIS,43.65995606,6.878255098,46
6044,LACOLLE-SUR-LOUP,43.68717014,7.097736438,47
13045,GRAVESON,43.85391117,4.767173692,48
4141,ONGLES,44.03142598,5.724808814,49
13031,LADESTROUSSE,43.37642328,5.598859324,50
13007,AURIOL,43.36079469,5.658390187,51
4097,LAJAVIE,44.19719902,6.321576075,52
4203,SELONNET,44.37172108,6.2937933,53
84018,BLAUVAC,44.03698937,5.243293797,54
84085,MURS,43.96476458,5.243694621,55
5110,PUY-SAINT-VINCENT,44.81442506,6.464747374,56
84074,MERINDOL,43.76192438,5.201534829,57
4135,MOUSTIERS-SAINTE-MARIE,43.83832786,6.228189096,58
5049,ESPARRON,44.46273959,5.893028482,59
6029,CANNES,43.55262028,7.004275927,60
5124,LAROCHETTE,44.59321141,6.148830981,61
4058,CLARET,44.37381183,5.964676732,62
5170,TALLARD,44.45912207,6.044856029,63
6088,NICE,43.71199927,7.238268895,64
84058,LACOSTE,43.8257421,5.265922719,65
6008,AUVARE,44.00742058,6.914678968,66
13105,SENAS,43.7446066,5.086878844,67
83120,SAINT-ZACHARIE,43.37753006,5.71820851,68
84051,GOULT,43.86725206,5.247827594,69
6108,LAROQUETTE-SUR-SIAGNE,43.58490925,6.950497948,70
4019,BARCELONNETTE,44.37856142,6.652150897,71
5080,MONTBRAND,44.59158291,5.667659516,72
83033,CARNOULES,43.29459851,6.196679749,73
5160,SALERANS,44.24212982,5.700960583,74
5136,SAINT-CREPIN,44.72432605,6.635550273,75
4224,UBRAYE,43.90704467,6.687184632,76
4209,SISTERON,44.20019251,5.93083716,77
13117,VITROLLES,43.44978317,5.263577877,78
6045,COLLONGUES,43.89359812,6.863831424,79
5176,VALSERRES,44.4892843,6.137893936,80
13026,CHATEAUNEUF-LES-MARTIGUES,43.38659064,5.147538226,81
84066,LIOUX,43.97933351,5.309398853,82
83044,COMPS-SUR-ARTUBY,43.70355201,6.502931857,83
13100,SAINT-REMY-DE-PROVENCE,43.7834249,4.853666653,84
83060,FOX-AMPHOUX,43.59554175,6.109093276,85
83006,ARTIGUES,43.57650188,5.802399934,86
5093,NEVACHE,45.04412864,6.598629355,87
83131,SOLLIES-TOUCAS,43.21282693,5.986939086,88
5102,LAPIARRE,44.47840872,5.648032054,89
5177,VARS,44.59252209,6.713514569,90
6159,VILLEFRANCHE-SUR-MER,43.71221531,7.322254105,91
5163,LESAUZE-DU-LAC,44.48557424,6.323176393,92
13074,PEYROLLES-EN-PROVENCE,43.62846769,5.576957348,93
6125,SAINT-MARTIN-D'ENTRAUNES,44.14944141,6.74588335,94
13083,ROGNONAS,43.90008332,4.798579775,95
4065,CRUIS,44.0831627,5.838469491,96
83100,PUGET-VILLE,43.27634759,6.148930541,97
5040,CHORGES,44.54551243,6.287823926,98
5179,VEYNES,44.55715297,5.822860025,99
13022,CASSIS,43.22304701,5.55117811,100
4157,PUIMOISSON,43.87081528,6.122002138,101
4144,LAPALUD-SUR-VERDON,43.7966483,6.327088746,102
5055,LAFAURIE,44.56745873,5.740405948,103
6107,ROQUESTERON-GRASSE,43.84915342,6.990119804,104
84089,PERTUIS,43.68723575,5.520524803,105
83101,RAMATUELLE,43.21861262,6.637547342,106
83037,LACELLE,43.38437035,5.998614116,107
84079,MONIEUX,44.05686682,5.341492231,108
5001,ABRIES,44.81634625,6.941644428,109
4088,FORCALQUIER,43.95990824,5.788282757,110
4045,CERESTE,43.85031617,5.589769262,111
4202,SAUSSES,44.01227113,6.779369393,112
5010,ASPRES-SUR-BUECH,44.56175121,5.772032987,113
5086,MONTJAY,44.36643809,5.614552705,114
6119,SAINT-DALMAS-LE-SELVAGE,44.28946568,6.840845396,115
6037,CAUSSOLS,43.73734474,6.902472332,116
6054,DRAP,43.75824325,7.337240902,117
4057,CLAMENSANE,44.32826636,6.0785018,118
4233,VAUMEILH,44.2903077,5.956531218,119
84036,CHATEAUNEUF-DE-GADAGNE,43.92763317,4.942591145,120
84086,OPPEDE,43.83131753,5.169821504,121
4180,SAINT-JACQUES,43.97691793,6.371285171,122
84099,ROBION,43.85196787,5.110086843,123
13098,SAINT-MITRE-LES-REMPARTS,43.45540299,5.014947255,124
5144,SAINT-JACQUES-EN-VALGODEMARD,44.77406378,6.069646007,125
13033,ENSUES-LA-REDONNE,43.35365396,5.199603076,126
4222,TURRIERS,44.39158821,6.159182215,127
6158,VILLARS-SUR-VAR,43.95186633,7.080245211,128
4176,SAINTE-CROIX-DU-VERDON,43.76428215,6.151588824,129
13112,VELAUX,43.52398546,5.249964249,130
5116,REOTIER,44.68135668,6.56457885,131
83130,SOLLIES-PONT,43.19076112,6.063276972,132
4092,LAGARDE,43.8298617,6.571545242,133
6063,GARS,43.86052267,6.816762945,134
5145,SAINT-JEAN-SAINT-NICOLAS,44.67449542,6.230858475,135
6030,LECANNET,43.57297686,7.006420578,136
13118,COUDOUX,43.56005154,5.254221607,137
6117,SAINT-BLAISE,43.81293379,7.230223363,138
4142,OPPEDETTE,43.93066048,5.592743304,139
5164,SAVINES-LE-LAC,44.5273257,6.393680593,140
4040,LECASTELLARD-MELAN,44.2016432,6.131595213,141
6093,LAPENNE,43.92468617,6.94222405,142
13056,MARTIGUES,43.37989205,5.049454023,143
4017,AUZET,44.30540016,6.311155924,144
83096,POURCIEUX,43.46464406,5.788608904,145
13060,MEYREUIL,43.49105225,5.500628119,146
83069,HYERES,43.10187135,6.188985085,147
84080,MONTEUX,44.0335256,4.984747665,148
83047,LACRAU,43.16352074,6.092683516,149
6084,MOUANS-SARTOUX,43.6185304,6.964944267,150
83025,BRUE-AURIAC,43.52795117,5.936645413,151
13042,GEMENOS,43.29810442,5.64391464,152
83028,CALLAS,43.56552884,6.57328932,153
4004,ALLEMAGNE-EN-PROVENCE,43.78879025,6.03091832,154
13106,SEPTEMES-LES-VALLONS,43.39349446,5.380804056,155
84038,CHEVAL-BLANC,43.78867823,5.124107321,156
83018,BESSE-SUR-ISSOLE,43.33994792,6.177749497,157
5078,MONETIER-ALLEMONT,44.39309625,5.933971903,158
6057,L'ESCARENE,43.83397177,7.365658041,159
6090,PEGOMAS,43.58655532,6.922248379,160
5146,SAINT-JULIEN-EN-BEAUCHENE,44.62645706,5.719799759,161
84065,LAURIS,43.76303655,5.303336932,162
13069,PELISSANNE,43.63083856,5.159573273,163
5024,BRUIS,44.46773667,5.503888637,164
13091,SAINT-CANNAT,43.61362867,5.306982573,165
84112,SAINT-MARTIN-DE-CASTILLON,43.85510722,5.519193124,166
4190,SAINT-MARTIN-LES-EAUX,43.87197029,5.74137178,167
84001,ALTHEN-DES-PALUDS,44.00480871,4.957938042,168
5095,LENOYER,44.69999939,6.001026942,169
6019,BLAUSASC,43.79346809,7.360334776,170
83085,LAMOTTE,43.50785112,6.550553999,171
84146,VILLEDIEU,44.28853456,5.047844415,172
5100,PELLEAUTIER,44.5102663,5.998777399,173
4154,PONTIS,44.4956919,6.365237766,174
13061,SAINT-PIERRE-DE-MEZOARGUES,43.86123508,4.657395241,175
84009,LABASTIDE-DES-JOURDANS,43.79453976,5.646777821,176
84090,PEYPIN-D'AIGUES,43.79644083,5.560033269,177
13051,LANCON-PROVENCE,43.57604062,5.159536015,178
13002,ALLAUCH,43.35331457,5.511347672,179
4099,LAMBRUISSE,44.04483449,6.445388467,180
84033,CASTELLET,43.83445227,5.481166572,181
6047,CONSEGUDES,43.84069572,7.045036709,182
4068,DAUPHIN,43.89324344,5.776452248,183
5054,LAFARE-EN-CHAMPSAUR,44.66537663,6.058260389,184
4130,MONTLAUX,44.04079238,5.85016627,185
5114,REALLON,44.6107754,6.360460394,186
4237,LEVERNET,44.27660683,6.402975255,187
5107,PUY-SAINT-ANDRE,44.89090366,6.56677781,188
84002,ANSOUIS,43.73651729,5.471366895,189
5084,MONTGARDIN,44.54358478,6.233056657,190
4055,CHAUDON-NORANTE,43.99191495,6.317368071,191
5120,RISTOLAS,44.73584931,6.99202108,192
4136,LAMURE-ARGENS,44.01661078,6.531967018,193
4182,SAINT-JULIEN-D'ASSE,43.92661539,6.07806455,194
5088,MONTMORIN,44.45010678,5.55351372,195
83111,SAINTE-ANASTASIE-SUR-ISSOLE,43.33341038,6.124961185,196
5019,LABEAUME,44.54829147,5.653752143,197
13103,SALON-DE-PROVENCE,43.64628852,5.068146496,198
5108,PUY-SAINT-EUSEBE,44.56858895,6.411298295,199
83140,TOURVES,43.40880156,5.927157071,200
5059,LAFREISSINOUSE,44.53553417,6.008128046,201
4016,AUTHON,44.24925455,6.15102271,202
5067,LESINFOURNAS,44.71494528,6.113088614,203
6114,SAINT-ANDRE-DE-LA-ROCHE,43.74587624,7.288713726,204
13052,MAILLANE,43.82306098,4.784565707,205
13210,MARSEILLE-10E--ARRONDISSEMENT,43.27551554,5.426811011,206
5127,ROUSSET,44.48437855,6.266691309,207
84126,SEGURET,44.21596402,5.028817201,208
84101,LAROQUE-SUR-PERNES,43.97419471,5.101755188,209
6162,LABRIGUE,44.07145556,7.651478289,210
84050,GORDES,43.90901924,5.198019786,211
5131,SAINT-AUBAN-D'OZE,44.48831569,5.84847801,212
83128,SILLANS-LA-CASCADE,43.56588241,6.165152406,213
4042,CASTELLET-LES-SAUSSES,44.04030386,6.734509005,214
4208,SIMIANE-LA-ROTONDE,43.98381282,5.562489946,215
84071,MAUBEC,43.84178006,5.137679034,216
4023,BAYONS,44.32492773,6.172825378,217
13087,ROUSSET,43.48414962,5.623807994,218
13073,PEYPIN,43.38478775,5.571319183,219
83026,CABASSE,43.42709727,6.232023495,220
5167,SIGOTTIER,44.4580496,5.685311139,221
84060,LAGARDE-D'APT,43.98387298,5.481644171,222
5165,SAVOURNON,44.4240776,5.799277415,223
13066,NOVES,43.85845235,4.899521945,224
6106,ROQUESTERON,43.86779062,7.024136117,225
13004,ARLES,43.54686924,4.662156426,226
4217,THOARD,44.1473006,6.124012983,227
4140,LESOMERGUES,44.15274548,5.589370589,228
6035,CASTELLAR,43.82205666,7.498915711,229
13003,ALLEINS,43.70741977,5.151050292,230
83123,SANARY-SUR-MER,43.13828285,5.795888142,231
6163,TENDE,44.09976693,7.540531794,232
84037,CHATEAUNEUF-DU-PAPE,44.0595884,4.827284356,233
6078,MALAUSSENE,43.91532326,7.141120635,234
83005,ARTIGNOSC-SUR-VERDON,43.69407677,6.107621594,235
4077,ENTREVENNES,43.93789727,6.033809031,236
5168,SIGOYER,44.48023337,5.969517926,237
5143,SAINT-GENIS,44.3808485,5.796311969,238
83104,RIANS,43.60550238,5.741325238,239
83063,LAGARDE-FREINET,43.32341603,6.466937868,240
13089,SAINT-ANDIOL,43.83075754,4.950273589,241
5149,SAINT-LEGER-LES-MELEZES,44.6468761,6.211718671,242
83127,SIGNES,43.27764075,5.857139622,243
13025,CHATEAUNEUF-LE-ROUGE,43.49126597,5.56821682,244
13048,JOUQUES,43.63341378,5.656757963,245
6116,SAINT-AUBAN,43.83097901,6.740065061,246
5158,LESAIX,44.46384783,5.833816167,247
84115,SAINT-PIERRE-DE-VASSOLS,44.0949073,5.144364017,248
5033,CHANOUSSE,44.36467602,5.660139229,249
83030,CAMPS-LA-SOURCE,43.37251201,6.121284188,250
5066,LAHAUTE-BEAUME,44.56867884,5.628457038,251
5118,RIBIERS,44.22079102,5.843422313,252
84075,METHAMIS,44.01263673,5.252999302,253
5178,VENTAVON,44.38566564,5.888453746,254
84077,MODENE,44.10578119,5.127870692,255
6051,LACROIX-SUR-ROUDOULE,44.00030967,6.870199116,256
5097,ORPIERRE,44.31469338,5.706186076,257
83046,COTIGNAC,43.52337571,6.14490029,258
5115,REMOLLON,44.47161852,6.159776579,259
83078,MOISSAC-BELLEVUE,43.64719028,6.167025033,260
83137,TOULON,43.13615897,5.932396342,261
4120,MEYRONNES,44.47306423,6.811147027,262
13097,SAINT-MARTIN-DE-CRAU,43.61192146,4.857014756,263
84044,ENTRECHAUX,44.22247308,5.133324904,264
5169,SORBIERS,44.36253871,5.573253246,265
4151,PIERRERUE,43.96233316,5.836018731,266
84082,MORMOIRON,44.07000585,5.190927012,267
83008,BAGNOLS-EN-FORET,43.5330955,6.708501061,268
4198,SAINT-VINCENT-LES-FORTS,44.43741627,6.368879607,269
4164,REVEST-SAINT-MARTIN,44.01984828,5.822986213,270
4183,SAINT-JULIEN-DU-VERDON,43.90976261,6.546059005,271
4090,LEFUGERET,44.01450008,6.665607471,272
84078,MONDRAGON,44.24298439,4.724573771,273
5111,PUY-SANIERES,44.55569499,6.436674189,274
84076,MIRABEAU,43.7048656,5.642689691,275
4245,VOLX,43.87066761,5.831539738,276
83007,AUPS,43.6246327,6.221327856,277
5006,L'ARGENTIERE-LA-BESSEE,44.78217327,6.472144973,278
4200,SALIGNAC,44.15716811,5.98824786,279
83064,GAREOULT,43.34032713,6.04087626,280
13008,AURONS,43.67151256,5.149036007,281
13023,CEYRESTE,43.22385015,5.636364733,282
84114,SAINT-PANTALEON,43.87788041,5.216532897,283
4021,BARRAS,44.10065756,6.098502128,284
84045,FAUCON,44.25242207,5.142184879,285
5141,SAINT-EUSEBE-EN-CHAMPSAUR,44.72242691,6.036466086,286
83098,LEPRADET,43.09940598,6.028440155,287
83102,REGUSSE,43.6676979,6.118145726,288
13036,EYRAGUES,43.84304663,4.842895294,289
13040,FUVEAU,43.45949485,5.553057472,290
84040,CRESTET,44.20975191,5.08597487,291
83043,COLLOBRIERES,43.24141482,6.340321846,292
13215,MARSEILLE-15E--ARRONDISSEMENT,43.35879475,5.363407897,293
5016,LABATIE-MONTSALEON,44.455945,5.749033046,294
5121,ROCHEBRUNE,44.45225036,6.192493465,295
4081,ESPARRON-DE-VERDON,43.74382503,5.988916392,296
6018,BIOT,43.62765581,7.083186129,297
83081,MONTAUROUX,43.59901011,6.789859953,298
84133,LATOUR-D'AIGUES,43.72148352,5.567346641,299
83145,VARAGES,43.59573325,5.944410997,300
4145,PEIPIN,44.14130265,5.943714738,301
6087,LESMUJOULS,43.87198477,6.859122794,302
83068,GRIMAUD,43.28202825,6.533032241,303
6085,MOUGINS,43.59614106,7.001294449,304
83079,LAMOLE,43.21592063,6.476566439,305
83118,SAINT-RAPHAEL,43.45746254,6.847342104,306
83070,LELAVANDOU,43.1656103,6.412312779,307
5028,CHABESTAN,44.47757559,5.783053196,308
6144,LATOUR,43.96268773,7.199949146,309
4116,LESMEES,43.99447674,5.966017556,310
6129,SAINT-SAUVEUR-SUR-TINEE,44.12106766,7.11814486,311
83075,LESMAYONS,43.30691019,6.359961727,312
13054,MARIGNANE,43.41720684,5.212219045,313
4152,PIERREVERT,43.80650506,5.722738217,314
84097,RICHERENCHES,44.35581331,4.903864898,315
5051,ETOILE-SAINT-CYRICE,44.32097089,5.643777615,316
5002,AGNIERES-EN-DEVOLUY,44.68267178,5.864643337,317
83080,MONS,43.69894665,6.70893258,318
5181,VILLAR-D'ARENE,44.99972177,6.364284546,319
4127,MONTFORT,44.05917099,5.952860936,320
4186,SAINT-LAURENT-DU-VERDON,43.72161722,6.068595388,321
6052,CUEBRIS,43.88921258,7.004487943,322
84049,GIGONDAS,44.16609833,5.012318718,323
13115,VERNEGUES,43.68413944,5.188255265,324
4134,LAMOTTE-DU-CAIRE,44.34087057,6.030526693,325
5096,ORCIERES,44.68409828,6.348975278,326
83009,BANDOL,43.14735445,5.747893584,327
4118,MELVE,44.35636981,5.992911021,328
83112,SAINT-CYR-SUR-MER,43.17203552,5.708326037,329
13005,AUBAGNE,43.29348438,5.563312735,330
6056,ENTRAUNES,44.21469606,6.76292204,331
6014,BENDEJUN,43.83032695,7.284471306,332
84096,RASTEAU,44.23228596,4.980472682,333
83035,LECASTELLET,43.22766749,5.765601084,334
13050,LAMBESC,43.66152177,5.251914469,335
6096,PIERLAS,44.03467608,7.016975867,336
84150,VISAN,44.32680065,4.944301781,337
84130,SUZETTE,44.17171965,5.061940895,338
83004,LESARCS,43.45098821,6.489702212,339
13111,VAUVENARGUES,43.5590116,5.613241037,340
83014,BAUDINARD-SUR-VERDON,43.71380384,6.133527576,341
6083,MENTON,43.79082337,7.493656124,342
13011,LESBAUX-DE-PROVENCE,43.74580873,4.802181625,343
4172,ROUMOULES,43.82104161,6.148647033,344
13046,GREASQUE,43.42620297,5.546851092,345
4075,ENTREPIERRES,44.19565372,6.022241242,346
6010,LEBAR-SUR-LOUP,43.69929431,6.962727791,347
4079,L'ESCALE,44.08100586,6.034554945,348
5069,LAGRAND,44.3375165,5.741945256,349
83152,RAYOL-CANADEL-SUR-MER,43.16429734,6.474774783,350
84149,VIOLES,44.17671002,4.951382296,351
83010,BARGEME,43.73013627,6.570867323,352
4053,CHATEAUNEUF-VAL-SAINT-DONAT,44.09545342,5.930546831,353
4031,BRAS-D'ASSE,43.92632572,6.126497725,354
4124,MONTAGNAC-MONTPEZAT,43.76652507,6.094548059,355
83049,CUERS,43.24116455,6.068563505,356
6012,BEAUSOLEIL,43.74772438,7.422221546,357
13029,CORNILLON-CONFOUX,43.57834007,5.076595752,358
83150,VINON-SUR-VERDON,43.7224278,5.807476059,359
83146,LAVERDIERE,43.64610992,5.952322759,360
4219,THORAME-HAUTE,44.0855015,6.601287415,361
83002,AIGUINES,43.72843695,6.304394299,362
5050,ESPINASSES,44.49317861,6.232713481,363
84046,FLASSAN,44.09854221,5.263720295,364
4128,MONTFURON,43.83158008,5.688593185,365
4059,CLUMANC,44.02209426,6.377643211,366
13037,LAFARE-LES-OLIVIERS,43.55444852,5.202476214,367
4204,SENEZ,43.92249782,6.369033713,368
13216,MARSEILLE-16E--ARRONDISSEMENT,43.36490541,5.313378286,369
4061,COLMARS,44.17242728,6.661540614,370
4070,DIGNE-LES-BAINS,44.09087236,6.235903235,371
5159,SALEON,44.32015511,5.775271694,372
6038,CHATEAUNEUF-GRASSE,43.66563458,6.979140593,373
84032,CASENEUVE,43.88886887,5.47985826,374
4244,VOLONNE,44.12394789,6.034678275,375
4110,MALLEMOISSON,44.0420072,6.118071472,376
4101,LARDIERS,44.08507929,5.726916122,377
13082,ROGNES,43.66487818,5.35218247,378
13209,MARSEILLE--9E--ARRONDISSEMENT,43.23408349,5.452496831,379
4028,BEYNES,43.98349652,6.240256631,380
4109,MALLEFOUGASSE-AUGES,44.07599186,5.897796486,381
83073,LELUC,43.38046489,6.305999501,382
4046,LECHAFFAUT-SAINT-JURSON,44.02318043,6.140737987,383
83067,GONFARON,43.32064949,6.300368624,384
6050,COURSEGOULES,43.79155803,7.036226435,385
4143,ORAISON,43.91110603,5.924580116,386
5072,LAYE,44.64174173,6.071039433,387
83125,SEILLONS-SOURCE-D'ARGENS,43.51509706,5.8769357,388
13009,LABARBEN,43.61838551,5.213850527,389
4041,LECASTELLET,43.91988849,5.979004953,390
6032,CAP-D'AIL,43.72473923,7.401616175,391
13202,MARSEILLE--2E--ARRONDISSEMENT,43.31269642,5.363649833,392
5154,SAINT-PIERRE-D'ARGENCON,44.51994649,5.690465129,393
4062,LACONDAMINE-CHATELARD,44.46276867,6.696291704,394
13028,LACIOTAT,43.19264109,5.613189558,395
84151,VITROLLES-EN-LUBERON,43.8137921,5.598999464,396
4201,SAUMANE,44.08128085,5.682146022,397
6001,AIGLUN,43.8524188,6.934942333,398
84102,ROUSSILLON,43.90128169,5.292018857,399
5175,VALLOUISE,44.83082805,6.411970143,400
84134,TRAVAILLAN,44.18945001,4.908561494,401
4027,BEVONS,44.17799648,5.878959287,402
5032,CHAMPOLEON,44.7457461,6.273122099,403
13108,TARASCON,43.79398853,4.686148492,404
84048,GIGNAC,43.92851099,5.523087164,405
83048,LACROIX-VALMER,43.19518907,6.58628136,406
5039,CHAUFFAYER,44.75815014,6.01187494,407
4126,MONTCLAR,44.40161384,6.341128052,408
4094,GREOUX-LES-BAINS,43.76761028,5.864950462,409
5044,CREVOUX,44.53760654,6.624703727,410
83042,COGOLIN,43.24645505,6.521922341,411
4229,VALBELLE,44.13712077,5.876276698,412
4072,DRAIX,44.12993915,6.371799776,413
84034,CAUMONT-SUR-DURANCE,43.89135805,4.956330773,414
4169,LAROCHEGIRON,44.10941839,5.663813974,415
6135,SIGALE,43.87579991,6.965586181,416
6113,SAINTE-AGNES,43.80553446,7.46128497,417
84061,LAGARDE-PAREOL,44.22721545,4.851094278,418
13201,MARSEILLE--1ER-ARRONDISSEMENT,43.29990094,5.382278698,419
5152,SAINT-MAURICE-EN-VALGODEMARD,44.79818638,6.112788002,420
84125,SAVOILLAN,44.17444464,5.372838028,421
83012,BARJOLS,43.55238794,5.987770496,422
4067,CUREL,44.17660551,5.672674647,423
5048,L'EPINE,44.42487965,5.61094352,424
84091,PIOLENC,44.17746971,4.765852891,425
4107,MAJASTRES,43.89807803,6.283691346,426
5034,CHATEAUNEUF-DE-CHABRE,44.28688561,5.79561242,427
84094,PUYMERAS,44.28495171,5.135909338,428
4137,NIBLES,44.28925418,6.008726217,429
4158,QUINSON,43.70806249,6.022694923,430
5017,LABATIE-NEUVE,44.57975663,6.212679835,431
13072,PEYNIER,43.43968641,5.62516789,432
83148,VIDAUBAN,43.40150463,6.449084855,433
84116,SAINT-ROMAIN-EN-VIENNOIS,44.26182772,5.101650309,434
84039,COURTHEZON,44.0865791,4.881633421,435
4220,LESTHUILES,44.39035846,6.561355974,436
83041,CLAVIERS,43.59883618,6.585699086,437
5058,FREISSINIERES,44.73649218,6.459377041,438
84022,BUISSON,44.27618461,5.001808622,439
13043,GIGNAC-LA-NERTHE,43.39050741,5.228347529,440
84110,SAINT-LEGER-DU-VENTOUX,44.20594768,5.27072625,441
83054,LAFARLEDE,43.1615363,6.042753255,442
5172,TRESCLEOUX,44.35495087,5.718257302,443
4206,SIGONCE,44.00452276,5.856583156,444
6002,AMIRAT,43.89629735,6.812559505,445
6128,SAINT-PAUL-DE-VENCE,43.69501903,7.121169519,446
4132,MONTSALIER,44.02995258,5.595741738,447
4195,SAINT-PONS,44.41727132,6.615074249,448
4001,AIGLUN,44.06387446,6.138428453,449
84035,CAVAILLON,43.85083618,5.036063009,450
4093,GIGORS,44.42399944,6.140973063,451
84064,LAPALUD,44.30654289,4.67951576,452
4231,VALERNES,44.25155897,5.969547642,453
4043,VAL-DE-CHALVAGNE,43.90463743,6.765785202,454
83039,CHATEAUVERT,43.50126295,6.011205163,455
6080,MARIE,44.03460771,7.157446532,456
5142,SAINT-FIRMIN,44.79348581,6.025710581,457
4121,MEZEL,43.99808634,6.178798923,458
13063,MIRAMAS,43.58421341,5.013843486,459
5074,LETTRET,44.481164,6.072584528,460
83109,LAROQUE-ESCLAPON,43.72138729,6.648180874,461
83095,PONTEVES,43.55077455,6.062920473,462
6118,SAINT-CEZAIRE-SUR-SIAGNE,43.65942591,6.803293762,463
84092,LEPONTET,43.96839035,4.865495908,464
6011,BEAULIEU-SUR-MER,43.70790394,7.332569349,465
5113,RAMBAUD,44.54682279,6.131666135,466
13049,LAMANON,43.70475781,5.08862704,467
5112,RABOU,44.60614613,6.010779289,468
5063,LAGRAVE,45.06011024,6.284069776,469
13102,SAINT-VICTORET,43.41423788,5.253987008,470
6027,CAGNES-SUR-MER,43.67151621,7.152757034,471
5003,AIGUILLES,44.77934429,6.875180982,472
6048,CONTES,43.80929593,7.324245116,473
84011,LEBEAUCET,43.97402679,5.131297762,474
6142,TOUET-DE-L'ESCARENE,43.85203432,7.377992104,475
4074,ENTRAGES,44.03793327,6.26880026,476
5011,AVANCON,44.53394753,6.191163901,477
4160,REILLANNE,43.88613622,5.659354153,478
84124,SAUMANE-DE-VAUCLUSE,43.93803575,5.112084998,479
83051,ENTRECASTEAUX,43.51196224,6.234751089,480
13205,MARSEILLE--5E--ARRONDISSEMENT,43.2928062,5.397577096,481
6053,DALUIS,44.03872445,6.799970958,482
6160,VILLENEUVE-D'ENTRAUNES,44.12214163,6.781905152,483
4051,CHATEAUNEUF-MIRAVAIL,44.15331521,5.717572625,484
13021,CARRY-LE-ROUET,43.3427663,5.153737658,485
4087,FONTIENNE,44.00686342,5.793825011,486
4218,THORAME-BASSE,44.10719292,6.489313254,487
13119,CARNOUX-EN-PROVENCE,43.25848516,5.565814312,488
83072,LORGUES,43.48146303,6.358927449,489
13038,FONTVIEILLE,43.72326107,4.723101689,490
4230,VALENSOLE,43.83808449,5.941918472,491
83083,MONTFORT-SUR-ARGENS,43.48125366,6.125607672,492
4242,VILLENEUVE,43.89570569,5.857321287,493
4111,MANE,43.93889738,5.742342135,494
6097,PIERREFEU,43.88519128,7.071008137,495
4189,SAINT-MARTIN-DE-BROMES,43.77747687,5.962501751,496
84059,LAFARE,44.15461996,5.049728143,497
6006,ASPREMONT,43.77507317,7.244757712,498
83129,SIX-FOURS-LES-PLAGES,43.0868186,5.829244649,499
84073,MENERBES,43.82437103,5.220871709,500
13058,MAUSSANE-LES-ALPILLES,43.71450042,4.833334596,501
5013,BARCILLONNETTE,44.43006466,5.90582685,502
84015,BEAUMONT-DU-VENTOUX,44.18263937,5.213856705,503
5129,SAINT-ANDRE-DE-ROSANS,44.36473938,5.520973718,504
5092,NEFFES,44.49584176,6.025507376,505
83062,LAGARDE,43.12632794,6.018981647,506
5065,GUILLESTRE,44.66809874,6.701015871,507
4024,BEAUJEU,44.21859504,6.371198069,508
83119,SAINT-TROPEZ,43.26231438,6.663430399,509
83143,LEVAL,43.44523848,6.051799038,510
84095,PUYVERT,43.75019028,5.338082232,511
83116,SAINT-MAXIMIN-LA-SAINTE-BAUME,43.45096764,5.859628735,512
13062,MIMET,43.41284311,5.49899491,513
4115,MEAILLES,44.04014597,6.645329053,514
6072,ILONSE,44.03479828,7.089764758,515
5135,SAINTE-COLOMBE,44.28892722,5.668349746,516
5062,LEGLAIZIL,44.74819228,5.974872478,517
4123,MISON,44.26243298,5.865626788,518
83132,SOLLIES-VILLE,43.17841663,6.017267225,519
4073,ENCHASTRAYES,44.36400854,6.710289807,520
5132,SAINT-BONNET-EN-CHAMPSAUR,44.68232699,6.102860502,521
83105,RIBOUX,43.30818777,5.757224088,522
6039,CHATEAUNEUF-VILLEVIEILLE,43.79990983,7.294124232,523
6101,RIGAUD,43.99293329,6.975050834,524
6022,BOUYON,43.82543998,7.125538728,525
5035,CHATEAUNEUF-D'OZE,44.50532552,5.897756029,526
5004,ANCELLE,44.61907039,6.2296217,527
83053,EVENOS,43.18624218,5.873040135,528
13077,PORT-DE-BOUC,43.42335188,4.992663223,529
6102,RIMPLAS,44.10276444,7.145053385,530
83066,GINASSERVIS,43.65929181,5.837520006,531
6133,SAUZE,44.08521999,6.800723246,532
84053,GRILLON,44.39457669,4.934142562,533
83040,CHATEAUVIEUX,43.78861708,6.595690747,534
84103,RUSTREL,43.9299577,5.475808056,535
6120,SAINT-ETIENNE-DE-TINEE,44.24914928,6.924524451,536
13092,SAINT-CHAMAS,43.54369052,5.073299889,537
4236,VERGONS,43.9152134,6.604631362,538
5077,MOLINES-EN-QUEYRAS,44.71665535,6.891908061,539
83136,LETHORONET,43.45893303,6.282656235,540
5057,FOUILLOUSE,44.45318514,6.000631531,541
84003,APT,43.87939327,5.389217578,542
5043,LESCOSTES,44.74857434,6.047285651,543
84136,VACQUEYRAS,44.1452203,4.979078637,544
13088,LEROVE,43.36533746,5.252922404,545
4235,VERDACHES,44.26779907,6.343346576,546
84109,SAINT-HIPPOLYTE-LE-GRAVEYRON,44.120374,5.076109298,547
6115,SAINT-ANTONIN,43.9078444,6.976612689,548
13044,GRANS,43.61422259,5.044745589,549
4112,MANOSQUE,43.83540408,5.791066542,550
6015,BERRE-LES-ALPES,43.83787388,7.330763011,551
83027,LACADIERE-D'AZUR,43.20322631,5.724710016,552
5082,MONT-DAUPHIN,44.66905624,6.62465091,553
84024,CABRIERES-D'AIGUES,43.79130154,5.491773115,554
4049,CHATEAU-ARNOUX-SAINT-AUBAN,44.08547061,5.99239535,555
84135,UCHAUX,44.21608885,4.801809249,556
5075,MANTEYER,44.53333211,5.949896675,557
83149,VILLECROZE,43.56444535,6.28543419,558
84016,BEDARRIDES,44.04774575,4.908041091,559
83091,PIERREFEU-DU-VAR,43.23454725,6.179558235,560
13079,PUYLOUBIER,43.51863782,5.677587378,561
83074,LAMARTRE,43.76358635,6.592695947,562
84072,MAZAN,44.05453201,5.130486009,563
6138,THEOULE-SUR-MER,43.49853454,6.929652484,564
83115,SAINTE-MAXIME,43.3564731,6.611727902,565
5020,BENEVENT-ET-CHARBILLAC,44.70411858,6.083852141,566
4084,ESTOUBLON,43.94316861,6.194078211,567
6130,SAINT-VALLIER-DE-THIEY,43.69689503,6.850627487,568
83126,LASEYNE-SUR-MER,43.0880295,5.870898418,569
5128,SAINT-ANDRE-D'EMBRUN,44.58665693,6.570721427,570
83113,SAINT-JULIEN,43.69996137,5.914993166,571
13096,SAINTES-MARIES-DE-LA-MER,43.50398297,4.463963572,572
4138,NIOZELLES,43.93185681,5.847350079,573
4205,SEYNE,44.33901082,6.384827968,574
84121,SANNES,43.7566978,5.488589927,575
84008,LEBARROUX,44.15477241,5.099189489,576
4228,VALAVOIRE,44.27950995,6.076157315,577
5070,LARAGNE-MONTEGLIN,44.33403454,5.816509571,578
83124,SEILLANS,43.64664575,6.613014085,579
5174,VAL-DES-PRES,44.95055222,6.66654835,580
84122,SARRIANS,44.09931491,4.957269487,581
83099,PUGET-SUR-ARGENS,43.47176713,6.686281959,582
84098,ROAIX,44.25513045,5.015151473,583
5025,BUISSARD,44.65752693,6.147550688,584
6155,VALLAURIS,43.5766473,7.058366129,585
84100,LAROQUE-ALRIC,44.14484414,5.06883399,586
6140,LETIGNET,43.62358146,6.852617918,587
4166,RIEZ,43.82845875,6.0823782,588
84055,JONQUERETTES,43.94918397,4.944139676,589
5183,VILLAR-SAINT-PANCRACE,44.83956858,6.650482941,590
5060,FURMEYER,44.53689842,5.875853588,591
5061,GAP,44.57986006,6.064860521,592
5045,CROTS,44.49629383,6.461971526,593
6067,GORBIO,43.7860282,7.44603825,594
83092,PIGNANS,43.29688379,6.254429348,595
4227,VACHERES,43.94674916,5.63529437,596
5005,ANTONAVES,44.25643061,5.806431527,597
83142,TRIGANCE,43.74140083,6.436485944,598
84020,BONNIEUX,43.82709307,5.31457907,599
4033,LABREOLE,44.44346621,6.289247504,600
83059,FORCALQUEIRET,43.33663925,6.091414106,601
6105,ROQUEFORT-LES-PINS,43.67417325,7.053012727,602
83108,LAROQUEBRUSSANNE,43.33719066,5.983937771,603
13013,BELCODENE,43.42203021,5.583761485,604
83089,OLLIERES,43.51019551,5.816462934,605
6150,LATURBIE,43.7451419,7.397918117,606
13053,MALLEMORT,43.72858327,5.182977265,607
83036,CAVALAIRE-SUR-MER,43.18190558,6.521217214,608
84056,JONQUIERES,44.13180296,4.91341543,609
4181,SAINT-JEANNET,43.97932202,6.118015528,610
83034,CARQUEIRANNE,43.09719401,6.071737934,611
4234,VENTEROL,44.44234601,6.087385014,612
5139,SAINT-ETIENNE-EN-DEVOLUY,44.67754198,5.940473688,613
6157,VENCE,43.73846406,7.101944361,614
13012,BEAURECUEIL,43.52205424,5.545935902,615
4159,REDORTIERS,44.09812111,5.614145915,616
4104,LIMANS,43.98660499,5.723664258,617
5171,THEUS,44.48521061,6.19688253,618
6131,SALLAGRIFFON,43.88076954,6.913737688,619
6156,VENANSON,44.04133646,7.239185084,620
13212,MARSEILLE-12E--ARRONDISSEMENT,43.30776837,5.439915677,621
6082,MASSOINS,43.94770227,7.124302524,622
5104,POLIGNY,44.68488767,6.034318606,623
5153,SAINT-MICHEL-DE-CHAILLOL,44.68889009,6.169820109,624
84081,MORIERES-LES-AVIGNON,43.93377888,4.908758783,625
5148,SAINT-LAURENT-DU-CROS,44.6342791,6.108868297,626
4156,PUIMICHEL,43.97916571,6.025386782,627
4035,BRUNET,43.88587854,6.032575363,628
4012,AUBENAS-LES-ALPES,43.93355842,5.67694694,629
6060,FALICON,43.75253658,7.26554537,630
6003,ANDON,43.77698568,6.823186473,631
84144,VIENS,43.90312264,5.560215831,632
6143,TOUET-SUR-VAR,43.94331235,7.013476401,633
6028,CAILLE,43.76869531,6.756666503,634
83082,MONTFERRAT,43.6363886,6.478467235,635
84041,CRILLON-LE-BRAVE,44.11804006,5.150953314,636
83114,SAINT-MARTIN-DE-PALLIERES,43.57418454,5.887908601,637
13027,CHATEAURENARD,43.88247076,4.839900046,638
6058,ESCRAGNOLLES,43.72940334,6.783372889,639
83017,BELGENTIER,43.23995644,5.996659001,640
4175,SAINTE-CROIX-A-LAUZE,43.9042071,5.615681705,641
83117,SAINT-PAUL-EN-FORET,43.56476821,6.682696081,642
4020,BARLES,44.27302802,6.253257439,643
6017,BEZAUDUN-LES-ALPES,43.80362197,7.09357147,644
6153,VALDEBLORE,44.11275965,7.195718912,645
83121,SALERNES,43.56210993,6.228730672,646
13039,FOS-SUR-MER,43.45568121,4.904521339,647
6109,LAROQUETTE-SUR-VAR,43.83327356,7.204662433,648
13116,VERQUIERES,43.83865516,4.91889951,649
5014,BARRET-SUR-MEOUGE,44.26471889,5.728644351,650
84068,LOURMARIN,43.77803338,5.366161741,651
6074,LANTOSQUE,43.97064575,7.304857301,652
6007,AURIBEAU-SUR-SIAGNE,43.61240687,6.912113567,653
83087,NANS-LES-PINS,43.37905143,5.784864486,654
5068,JARJAYES,44.50532996,6.10808996,655
13024,CHARLEVAL,43.72111188,5.245766453,656
6021,BONSON,43.86229348,7.182787098,657
6042,CLANS,44.00490973,7.178763669,658
6036,CASTILLON,43.83614511,7.464552475,659
84138,VALREAS,44.37715886,4.993549362,660
6136,SOSPEL,43.88446074,7.44794905,661
84108,SAINT-DIDIER,44.00925498,5.108652475,662
13090,SAINT-ANTONIN-SUR-BAYON,43.51718526,5.59403461,663
6055,DURANUS,43.89403506,7.280226862,664
83141,TRANS-EN-PROVENCE,43.50246842,6.489432529,665
13080,LEPUY-SAINTE-REPARADE,43.65182856,5.439583896,666
5109,PUY-SAINT-PIERRE,44.89731526,6.604707618,667
84023,BUOUX,43.82182106,5.375017683,668
6046,COLOMARS,43.75942342,7.222632498,669
6068,GOURDON,43.72424938,6.963560651,670
84093,PUGET,43.76953366,5.256997344,671
6059,EZE,43.72892602,7.360571884,672
84010,LABASTIDONNE,43.69283833,5.577693518,673
4009,ARCHAIL,44.11106534,6.330714112,674
6023,BREIL-SUR-ROYA,43.94043047,7.50391615,675
13018,CABANNES,43.85848045,4.957934027,676
5166,SERRES,44.42138581,5.715497511,677
13085,ROQUEFORT-LA-BEDOULE,43.25109072,5.629046343,678
84054,L'ISLE-SUR-LA-SORGUE,43.91339759,5.056642775,679
4139,NOYERS-SUR-JABRON,44.16865235,5.80998244,680
5157,SAINT-VERAN,44.68453081,6.890574377,681
6071,GUILLAUMES,44.08806832,6.874935015,682
84043,ENTRAIGUES-SUR-LA-SORGUE,43.99501734,4.932953872,683
5053,EYGUIANS,44.3570512,5.783364902,684
6139,THIERY,43.974139,7.042456714,685
4155,PRADS-HAUTE-BLEONE,44.21343364,6.463769946,686
6016,BEUIL,44.10812429,6.972124581,687
84111,SAINT-MARCELLIN-LES-VAISON,44.23714842,5.101903599,688
13032,EGUILLES,43.57112088,5.328857519,689
83016,LEBEAUSSET,43.20693156,5.820200861,690
4171,ROUGON,43.79665948,6.393181451,691
83088,NEOULES,43.2945311,6.025927391,692
84030,CAROMB,44.11243288,5.106870405,693
6041,CIPIERES,43.76959269,6.928145263,694
6147,TOURRETTE-LEVENS,43.78607372,7.272556821,695
4113,MARCOUX,44.12821924,6.280078859,696
13001,AIX-EN-PROVENCE,43.53607084,5.398574446,697
13086,ROQUEVAIRE,43.34378647,5.597726432,698
84117,SAINT-ROMAN-DE-MALEGARDE,44.26322398,4.956749839,699
5184,VITROLLES,44.42465265,5.947690083,700
84107,SAINT-CHRISTOL,44.03128022,5.503248811,701
6145,TOURETTE-DU-CHATEAU,43.87827521,7.137345115,702
4022,BARREME,43.94628087,6.378115587,703
6094,PEONE,44.12992504,6.920985839,704
13094,SAINT-ETIENNE-DU-GRES,43.78494291,4.735664007,705
84104,SABLET,44.19476807,5.001182161,706
5180,LESVIGNEAUX,44.82127732,6.536771728,707
6137,SPERACEDES,43.65245068,6.856856704,708
4188,SAINT-MAIME,43.90064207,5.801542403,709
83022,BRENON,43.7658452,6.537776448,710
4173,SAINT-ANDRE-LES-ALPES,43.97133014,6.501497122,711
4194,SAINT-PIERRE,43.90888894,6.921845911,712
84070,MALEMORT-DU-COMTAT,44.01881899,5.167418438,713
84143,VENASQUE,43.98512377,5.165068656,714
84062,LAGNES,43.89248769,5.114586694,715
4096,JAUSIERS,44.38761102,6.786023124,716
5173,UPAIX,44.31960737,5.883114324,717
83084,MONTMEYAN,43.64825694,6.061246191,718
5009,ASPRES-LES-CORPS,44.81288314,6.000768348,719
5081,MONTCLUS,44.41493433,5.669920877,720
5038,CHATEAU-VILLE-VIEILLE,44.76772897,6.80006565,721
4184,SAINT-JURS,43.89904742,6.19288089,722
5133,SAINT-CHAFFREY,44.93464796,6.601390239,723
4216,THEZE,44.32975324,5.925023101,724
5150,SAINTE-MARIE,44.46399987,5.474156754,725
13203,MARSEILLE--3E--ARRONDISSEMENT,43.31212,5.380109814,726
4102,LELAUZET-UBAYE,44.43291388,6.419425275,727
84031,CARPENTRAS,44.05938026,5.061348448,728
4050,CHATEAUFORT,44.27504612,6.029670115,729
83139,TOURTOUR,43.59358009,6.310682972,730
84147,VILLELAURE,43.70751571,5.430854497,731
5147,SAINT-JULIEN-EN-CHAMPSAUR,44.66852889,6.129921943,732
4174,SAINT-BENOIT,43.96294141,6.723867046,733
4085,FAUCON-DU-CAIRE,44.39594639,6.103673887,734
5140,SAINT-ETIENNE-LE-LAUS,44.50803468,6.163230581,735
13099,SAINT-PAUL-LES-DURANCE,43.6854814,5.753725588,736
84105,SAIGNON,43.86040883,5.438316136,737
5123,LAROCHE-DES-ARNAUDS,44.58381704,5.96045928,738
4066,CURBANS,44.40834733,6.030050012,739
5087,MONTMAUR,44.58973614,5.885611147,740
13070,LAPENNE-SUR-HUVEAUNE,43.27720797,5.518509144,741
6070,GREOLIERES,43.80700065,6.931964962,742
84063,LAMOTTE-DU-RHONE,44.27616143,4.675105117,743
13214,MARSEILLE-14E--ARRONDISSEMENT,43.34550181,5.394089158,744
5094,NOSSAGE-ET-BENEVENT,44.30972056,5.754522217,745
5042,LACLUSE,44.64232786,5.841691429,746
6110,ROUBION,44.10850476,7.028029732,747
84052,GRAMBOIS,43.76055984,5.604034436,748
5008,ASPREMONT,44.49293455,5.720226822,749
5052,EYGLIERS,44.6925245,6.666887414,750
4148,PEYROULES,43.81691947,6.643101147,751
5090,LAMOTTE-EN-CHAMPSAUR,44.74073675,6.129301498,752
84013,BEAUMETTES,43.86315903,5.203657936,753
5161,LASALLE-LES-ALPES,44.95266857,6.565356418,754
13006,AUREILLE,43.70007269,4.944966422,755
13211,MARSEILLE-11E--ARRONDISSEMENT,43.28844719,5.483814662,756
6103,ROQUEBILLIERE,44.02709518,7.292694672,757
4054,CHATEAUREDON,44.02650875,6.224295079,758
5079,LEMONETIER-LES-BAINS,44.99561068,6.469664973,759
6069,GRASSE,43.65563943,6.931905082,760
4170,LAROCHETTE,43.91227603,6.880700589,761
13068,PARADOU,43.70822428,4.778281436,762
83045,CORRENS,43.48641856,6.068262176,763
84128,SIVERGUES,43.82296673,5.416275099,764
83097,POURRIERES,43.49388636,5.747177117,765
83038,CHATEAUDOUBLE,43.62346571,6.435671325,766
6148,TOURRETTES-SUR-LOUP,43.71745366,7.039893763,767
6040,CHATEAUNEUF-D'ENTRAUNES,44.16397016,6.835065557,768
84026,CADENET,43.73040563,5.383543197,769
5012,BARATIER,44.5049967,6.504942182,770
6066,GILETTE,43.84819625,7.161323411,771
4149,PEYRUIS,44.03515352,5.928333557,772
6126,SAINT-MARTIN-DU-VAR,43.81661724,7.199292204,773
13208,MARSEILLE--8E--ARRONDISSEMENT,43.24172718,5.374644363,774
13019,CABRIES,43.44964219,5.34976664,775
5155,SAINT-PIERRE-AVEZ,44.24854283,5.768382111,776
5085,MONTGENEVRE,44.93899322,6.72778259,777
4241,VILLEMUS,43.8613318,5.709304431,778
13041,GARDANNE,43.45260632,5.479638603,779
84123,SAULT,44.0729876,5.398899566,780
83107,ROQUEBRUNE-SUR-ARGENS,43.4285091,6.652128817,781
6112,LEROURET,43.67956128,7.009625536,782
6122,SAINT-JEANNET,43.75884539,7.140732118,783
84047,GARGAS,43.89606539,5.343623301,784
83031,LECANNET-DES-MAURES,43.37376321,6.375501033,785
13034,EYGALIERES,43.76170475,4.952119836,786
84004,AUBIGNAN,44.09773806,5.031656767,787
13107,SIMIANE-COLLONGUE,43.41155186,5.437969244,788
4191,SAINT-MARTIN-LES-SEYNE,44.38272027,6.255553206,789
84057,JOUCAS,43.92636647,5.2526094,790
5162,LASAULCE,44.43051245,6.010993832,791
4030,BLIEUX,43.87462748,6.362796708,792
13109,LETHOLONET,43.51969141,5.508192539,793
84137,VAISON-LA-ROMAINE,44.24770187,5.060407823,794
6104,ROQUEBRUNE-CAP-MARTIN,43.7638279,7.458736161,795
6043,COARAZE,43.86649018,7.299133492,796
84087,ORANGE,44.12891354,4.80987924,797
13084,LAROQUE-D'ANTHERON,43.71764095,5.301576336,798
5064,LACHAPELLE-EN-VALGAUDEMAR,44.81661779,6.242577934,799
83153,SAINT-MANDRIER-SUR-MER,43.07543229,5.926423152,800
6033,CARROS,43.78503906,7.184141599,801
5106,PRUNIERES,44.54334126,6.336404312,802
83106,ROCBARON,43.30666869,6.083616583,803
6086,MOULINET,43.95369914,7.414004054,804
5130,SAINT-APOLLINAIRE,44.55787041,6.353900353,805
6161,VILLENEUVE-LOUBET,43.64925607,7.107284349,806
4162,REVEST-DES-BROUSSES,43.97548507,5.675012212,807
84145,VILLARS,43.95198138,5.433344184,808
6098,PUGET-ROSTANG,43.98720048,6.936855822,809
83134,TARADEAU,43.46125754,6.430663603,810
4211,SOURRIBES,44.15886648,6.044302048,811
83071,LALONDE-LES-MAURES,43.16892134,6.24285151,812
13104,SAUSSET-LES-PINS,43.34566903,5.11765507,813
6121,SAINT-JEAN-CAP-FERRAT,43.68717889,7.329936324,814
4163,REVEST-DU-BION,44.09409035,5.540509385,815
5119,RISOUL,44.62403808,6.623174027,816
84006,AURIBEAU,43.82997717,5.448093598,817
6092,PEILLON,43.77273529,7.371479707,818
6065,LAGAUDE,43.72142377,7.160399264,819
83021,BRAS,43.47040816,5.958532544,820
4047,CHAMPTERCIER,44.09693513,6.144564514,821
83020,LEBOURGUET,43.78009374,6.503450356,822
83029,CALLIAN,43.61251802,6.75708895,823
13076,PLAN-D'ORGON,43.81812611,5.002281832,824
84083,MORNAS,44.20374764,4.740145493,825
5071,LARDIER-ET-VALENCA,44.43660465,5.973485268,826
6089,OPIO,43.65756107,7.008608642,827
6024,BRIANCONNET,43.86494981,6.745013446,828
4036,LEBRUSQUET,44.16816214,6.303473519,829
84012,BEAUMES-DE-VENISE,44.12338569,5.028755898,830
83023,BRIGNOLES,43.39929419,6.077402443,831
13204,MARSEILLE--4E--ARRONDISSEMENT,43.30673336,5.400874888,832
5182,VILLAR-LOUBIERE,44.83672733,6.135597613,833
4129,MONTJUSTIN,43.84529309,5.650235603,834
83011,BARGEMON,43.63331046,6.542445892,835
4187,SAINT-LIONS,43.9786318,6.406277407,836
84142,VELLERON,43.96157009,5.028370539,837
6079,MANDELIEU-LA-NAPOULE,43.53805105,6.918089365,838
4179,SAINT-GENIEZ,44.23266689,6.062674027,839
84019,BOLLENE,44.28820164,4.752359563,840
5122,LAROCHE-DE-RAME,44.76566812,6.616443697,841
4005,ALLONS,43.9803885,6.590327442,842
84042,CUCURON,43.77822436,5.443615804,843
13114,VENTABREN,43.54225285,5.30622322,844
6100,REVEST-LES-ROCHES,43.88312974,7.167782771,845
5101,PELVOUX,44.89963921,6.435864309,846
84119,SAINT-SATURNIN-LES-AVIGNON,43.96215294,4.941099672,847
83015,BAUDUEN,43.71574235,6.202044556,848
4095,L'HOSPITALET,44.10891876,5.706859256,849
13064,MOLLEGES,43.80534104,4.948869451,850
83151,VINS-SUR-CARAMY,43.43301288,6.150018365,851
13059,MEYRARGUES,43.62448765,5.522715131,852
6152,VALBONNE,43.62828833,7.029544767,853
4192,SAINT-MICHEL-L'OBSERVATOIRE,43.90987941,5.720043154,854
84007,AVIGNON,43.93524483,4.840715725,855
83003,AMPUS,43.62836368,6.371876502,856
4199,SAINT-VINCENT-SUR-JABRON,44.16976591,5.747947653,857
5027,CERVIERES,44.85328485,6.764865473,858
5091,MOYDANS,44.40997452,5.508973462,859
5036,CHATEAUROUX-LES-ALPES,44.6423671,6.482908233,860
84025,CABRIERES-D'AVIGNON,43.89653227,5.152798016,861
6123,SAINT-LAURENT-DU-VAR,43.68596258,7.182187918,862
6111,ROURE,44.11891387,7.066802965,863
4150,PIEGUT,44.45337861,6.131722579,864
5037,CHATEAUVIEUX,44.48417483,6.051871146,865
83057,FLASSANS-SUR-ISSOLE,43.37609879,6.221624165,866
13113,VENELLES,43.59286739,5.491383816,867
6020,LABOLLENE-VESUBIE,43.99514532,7.371843754,868
83138,TOURRETTES,43.61405396,6.723783645,869
84028,CAIRANNE,44.23025755,4.933399969,870
13017,BOULBON,43.86776632,4.697547067,871
6075,LEVENS,43.8500976,7.240330273,872
4025,BEAUVEZER,44.14397527,6.597727747,873
6151,UTELLE,43.92731814,7.238644629,874
5026,CEILLAC,44.65265162,6.803661898,875
4178,SAINT-ETIENNE-LES-ORGUES,44.06701498,5.780460528,876
83013,LABASTIDE,43.74791753,6.632640278,877
83122,LESSALLES-SUR-VERDON,43.76701422,6.206525427,878
84113,SAINT-MARTIN-DE-LA-BRASQUE,43.7640136,5.539758216,879
5103,LEPOET,44.27897466,5.901313184,880
4037,LECAIRE,44.37441635,6.068757742,881
83133,TANNERON,43.57489952,6.856710795,882
4161,MEOLANS-REVEL,44.3714312,6.498464049,883
6099,PUGET-THENIERS,43.95216492,6.906093114,884
5018,LABATIE-VIEILLE,44.55532274,6.155707393,885
5056,FOREST-SAINT-JULIEN,44.62980144,6.141075313,886
83090,OLLIOULES,43.13861337,5.853692045,887
6124,SAINT-LEGER,44.00265977,6.82309685,888
84129,SORGUES,44.0145764,4.867405154,889
83135,TAVERNES,43.6002244,6.020993568,890
4032,BRAUX,43.99303445,6.699411278,891
4197,SAINTE-TULLE,43.78304825,5.773023317,892
6025,LEBROC,43.81478221,7.159076339,893
84067,LORIOL-DU-COMTAT,44.07535001,5.005147997,894
13065,MOURIES,43.70084542,4.890384862,895
4133,MORIEZ,43.96409295,6.462533459,896
4008,ANNOT,43.96200097,6.663958116,897
83147,VERIGNON,43.66252841,6.276503592,898
13095,SAINT-MARC-JAUMEGARDE,43.55618493,5.522069938,899
6132,SAORGE,43.99353188,7.537673484,900
83076,MAZAUGUES,43.34487612,5.895895823,901
84148,VILLES-SUR-AUZON,44.06606051,5.25707803,902
5031,CHAMPCELLA,44.71757749,6.531380429,903
13110,TRETS,43.43780873,5.699952432,904
84027,CADEROUSSE,44.10993588,4.74345047,905
13101,SAINT-SAVOURNIN,43.40572481,5.531014914,906
83061,FREJUS,43.47195581,6.763615974,907
13014,BERRE-L'ETANG,43.50364425,5.160613698,908
13093,SAINT-ESTEVE-JANSON,43.69236956,5.389589126,909
6062,FONTAN,44.02190526,7.544282152,910
5046,EMBRUN,44.58042949,6.475592989,911
6073,ISOLA,44.18725853,7.074880623,912
83110,ROUGIERS,43.38185744,5.851441272,913
84021,BRANTES,44.18536628,5.332474251,914
6049,COURMES,43.75255338,7.017376064,915
84106,SAINTE-CECILE-LES-VIGNES,44.23585585,4.889282756,916
4193,SAINT-PAUL-SUR-UBAYE,44.55889884,6.820787701,917
5134,SAINT-CLEMENT-SUR-DURANCE,44.6478035,6.560740418,918
5098,LESORRES,44.48506665,6.579731422,919
4026,BELLAFFAIRE,44.40439153,6.194203045,920
83050,DRAGUIGNAN,43.53575133,6.454365692,921
84139,FONTAINE-DE-VAUCLUSE,43.9220821,5.131254243,922
4086,FAUCON-DE-BARCELONNETTE,44.41358267,6.67868076,923
13071,LESPENNES-MIRABEAU,43.40267912,5.315470941,924
4006,ALLOS,44.26149614,6.6267179,925
4018,BANON,44.02694481,5.649647152,926
4076,ENTREVAUX,43.9502625,6.802385437,927
6141,TOUDON,43.89146419,7.108407706,928
84132,LETHOR,43.92823983,4.993241234,929
13047,ISTRES,43.55026891,4.951181352,930
4177,HAUTES-DUYES,44.19490517,6.17423381,931
84120,SAINT-TRINIT,44.09603619,5.478858789,932
13030,CUGES-LES-PINS,43.2805717,5.710246158,933
84127,SERIGNAN-DU-COMTAT,44.19390122,4.847857272,934
84131,TAILLADES,43.83154745,5.094806905,935
13010,BARBENTANE,43.89472498,4.749340429,936
6004,ANTIBES,43.58746515,7.106354183,937
4226,UVERNET-FOURS,44.31911321,6.670284434,938
6034,CASTAGNIERS,43.79211089,7.227741331,939
6076,LIEUCHE,44.00156694,7.032410786,940
83055,FAYENCE,43.61033458,6.678432799,941
83103,LEREVEST-LES-EAUX,43.18249184,5.945653922,942
13015,BOUC-BEL-AIR,43.44722966,5.412370561,943
13035,EYGUIERES,43.7025563,5.015577052,944
5022,BREZIERS,44.42105309,6.22281621,945
84029,CAMARET-SUR-AIGUES,44.1596814,4.884103975,946
5126,ROSANS,44.39987195,5.461465318,947
4091,GANAGOBIE,44.00258621,5.908500761,948
5089,MONTROND,44.38676268,5.746261764,949
83086,LEMUY,43.46873079,6.576949368,950
5138,SAINT-DISDIER,44.73305792,5.879529968,951
13075,PLAN-DE-CUQUES,43.36709272,5.464886235,952
83065,GASSIN,43.23920652,6.586175186,953
6095,PEYMEINADE,43.63052945,6.881665209,954
6127,SAINT-MARTIN-VESUBIE,44.1020722,7.302440716,955
13206,MARSEILLE--6E--ARRONDISSEMENT,43.28709895,5.381047854,956
84140,VAUGINES,43.77861853,5.406678543,957
83094,LEPLAN-DE-LA-TOUR,43.3384389,6.547457511,958
4013,AUBIGNOSC,44.11824496,5.957344849,959
6064,GATTIERES,43.76521954,7.168774682,960
13078,PORT-SAINT-LOUIS-DU-RHONE,43.41481937,4.806796636,961
6013,BELVEDERE,44.05648722,7.3738312,962
4167,LAROBINE-SUR-GALABRE,44.19273299,6.230384357,963
83032,CARCES,43.46900592,6.176372734,964
84017,BEDOIN,44.13746241,5.234460053,965
83052,ESPARRON,43.58746977,5.848720662,966
13057,MAS-BLANC-DES-ALPILLES,43.78789022,4.763851534,967
84118,SAINT-SATURNIN-LES-APT,43.95873689,5.373257161,968
6005,ASCROS,43.9193423,7.015506848,969
6009,BAIROLS,43.98705102,7.119694731,970
84005,AUREL,44.13812647,5.396333262,971
6091,PEILLE,43.80646483,7.411110167,972
83144,LAVALETTE-DU-VAR,43.1499152,5.992225389,973
4207,SIGOYER,44.32237115,5.961028163,974
5076,MEREUIL,44.38397415,5.712590987,975
4106,LURS,43.96983433,5.880494063,976
4100,LARCHE,44.42722049,6.872615571,977
83093,PLAN-D'AUPS-SAINTE-BAUME,43.33371305,5.738560183,978
